<?xml version="1.0"?>
<!DOCTYPE flight_plan SYSTEM "../flight_plan.dtd">
<flight_plan alt="35" ground_alt="5" home_mode_height="30" lat0="51.4045325" lon0="-2.8191902" max_dist_from_home="640" name="IMAV2024_Outdoor_Overactuated_Quadplane" qfu="250." security_height="10">
  <header>
    #include "modules/nav/nav_rotorcraft_hybrid.h"
    #include "autopilot.h"
    #include "modules/overactuated_vehicle/overactuated_mixing.h"
    static inline bool delay_test_rc(bool test, int delay) {
      static int nb = 0;
        if (test) {
        nb++;
        if (nb == delay) {
          nb = 0;
          return true;
        }
        return false;
      } else {
        nb = 0;
        return false;
      }
    }
  </header>
  <waypoints>
    <waypoint name="HOME" x="0.0" y="0.0"/>
    <waypoint name="CLIMB" x="16.466" y="-14.312"/>

    <waypoint name="STDBY" lat="51.4039" lon="-2.81935"/>
    <waypoint name="TD" lat="51.4043" lon="-2.81909"/>

    <waypoint name="ARUCO_HOVER" lat="51.4037" lon="-2.81794"/>
    <waypoint name="ARUCO_HOVER_GUESS" lat="51.4038" lon="-2.81794"/>

    <!-- PERFORMANCE FLIGHT AREA -->
    <waypoint name="p1" lat="51.4034" lon="-2.81971"/>
    <waypoint name="p2" lat="51.4026" lon="-2.81855"/>
    <waypoint name="p3" lat="51.4042" lon="-2.8154"/>
    <waypoint name="p4" lat="51.405" lon="-2.81644"/>

    <waypoint name="LAWN1" lat="51.4021" lon="-2.8218"/>
    <waypoint name="LAWN2" lat="51.4032" lon="-2.82258"/>
    <waypoint name="LAWN3" lat="51.4034" lon="-2.82226"/>
    <waypoint name="LAWN4" lat="51.4024" lon="-2.82143"/>
    <waypoint name="LAWN5" lat="51.4026" lon="-2.82116"/>
    <waypoint name="LAWN6" lat="51.4035" lon="-2.82192"/>
    <waypoint name="LAWN7" lat="51.4037" lon="-2.82158"/>
    <waypoint name="LAWN8" lat="51.4028" lon="-2.82089"/>
    <waypoint name="LAWN9" lat="51.403" lon="-2.82068"/>
    <waypoint name="LAWN10" lat="51.4038" lon="-2.82123"/>
    <waypoint name="LAWN11" lat="51.4039" lon="-2.82089"/>
    <waypoint name="LAWN12" lat="51.4032" lon="-2.82047"/>

    <!-- MAPPING AREA -->
    <waypoint name="MAP1" lat="51.40397348780787" lon="-2.820792534133579"/>
    <waypoint name="MAP2" lat="51.40324827491988" lon="-2.822579075697425"/>
    <waypoint name="MAP3" lat="51.40216290330571" lon="-2.821736580096323"/>
    <waypoint name="MAP4" lat="51.40318633735384" lon="-2.820434907050242"/>

    <waypoint name="D1" lat="51.4041" lon="-2.81938"/>
    <waypoint name="D2" lat="51.4041" lon="-2.81882"/>
    <waypoint name="D3" lat="51.4037" lon="-2.81922"/>
    <waypoint name="D4" lat="51.4039" lon="-2.81861"/>

    <!-- PERFORMANCE FLIGHT AREA -->
    <waypoint name="C1" lat="51.40337101177714" lon="-2.81946343972307"/>
    <waypoint name="C2" lat="51.40269828686684" lon="-2.81854499646789"/>
    <waypoint name="C3" lat="51.40412401003561" lon="-2.81582776937354"/>
    <waypoint name="C4" lat="51.40480870184149" lon="-2.81670290546800"/>

    <!-- GEOFENCE -->
    <waypoint name="_F1" lat="51.40379999945021" lon="-2.812356282389418"/>
    <waypoint name="_F2" lat="51.40685946623258" lon="-2.815004234777355"/>
    <waypoint name="_F3" lat="51.40579141351461" lon="-2.817678320877347"/>
    <waypoint name="_F4" lat="51.40508726787956" lon="-2.81840937698165"/>
    <waypoint name="_F5" lat="51.40444290268980" lon="-2.819998224974223"/>
    <waypoint name="_F6" lat="51.40453540633804" lon="-2.820990700718431"/>
    <waypoint name="_F7" lat="51.40291745318346" lon="-2.824989633023005"/>
    <waypoint name="_F8" lat="51.39994635405159" lon="-2.822079482030429"/>

    <!-- PERMITTED FLIGHT AREA -->
    <waypoint name="_FLY1" lat="51.40424870902749" lon="-2.820119499603871"/>
    <waypoint name="_FLY2" lat="51.40364806450683" lon="-2.821602369304292"/>
    <waypoint name="_FLY3" lat="51.40277234701238" lon="-2.823731664510897"/>
    <waypoint name="_FLY4" lat="51.40074322069155" lon="-2.821774308525683"/>
    <waypoint name="_FLY5" lat="51.40400414773781" lon="-2.813566012884135"/>
    <waypoint name="_FLY6" lat="51.40610220954286" lon="-2.815401874714203"/>
    <waypoint name="_FLY7" lat="51.40434319438164" lon="-2.819871389267096"/>

    <!-- PICTURES AREA -->
    <waypoint name="_P1" lat="51.40362957556762" lon="-2.819863662028597"/>
    <waypoint name="_P2" lat="51.40429280586027" lon="-2.820004683319591"/>
    <waypoint name="_P3" lat="51.40397717175711" lon="-2.820793630630163"/>
    <waypoint name="_P4" lat="51.40359227287529" lon="-2.820623028420364"/>
    <waypoint name="_P5" lat="51.40318748775402" lon="-2.820433716921217"/>
  </waypoints>
  <sectors>
    <sector color="red" name="Geofence">
      <corner name="_F1"/>
      <corner name="_F2"/>
      <corner name="_F3"/>
      <corner name="_F4"/>
      <corner name="_F5"/>
      <corner name="_F6"/>
      <corner name="_F7"/>
      <corner name="_F8"/>
    </sector>
    <sector color="green" name="Permitted_Flight_Area">
      <corner name="_FLY1"/>
      <corner name="_FLY2"/>
      <corner name="_FLY3"/>
      <corner name="_FLY4"/>
      <corner name="_FLY5"/>
      <corner name="_FLY6"/>
      <corner name="_FLY7"/>
    </sector>
    <sector color="yellow" name="Mapping">
      <corner name="MAP1"/>
      <corner name="MAP2"/>
      <corner name="MAP3"/>
      <corner name="MAP4"/>
    </sector>
    <sector color="purple" name="Pics">
      <corner name="_P1"/>
      <corner name="_P2"/>
      <corner name="_P3"/>
      <corner name="_P4"/>
      <corner name="_P5"/>
    </sector>
    <sector color="blue" name="Performance">
      <corner name="C1"/>
      <corner name="C2"/>
      <corner name="C3"/>
      <corner name="C4"/>
    </sector>
  </sectors>
  <variables>
    <variable init="false" max="1" min="-0" step="1" type="bool" var="task4"/>
  </variables>
  <exceptions>
	<!-- Check inside Flight Area, then goto Standby -->
    <exception cond="Or(!InsideGeofence(GetPosX(), GetPosY()), GetPosAlt() @GT GetAltRef() + 120) @AND !(nav_block @LT IndexOfBlock('Start Engine')) @AND !(nav_block @GT IndexOfBlock('land here'))" deroute="Holding point"/>
    <exception cond="(nav_block @GT IndexOfBlock('Standby') @AND nav_block @LT IndexOfBlock('landed'))
    @AND GpsIsLost() @AND delay_test_rc(RadioControlIsLost(),20)" deroute="landed"/>
    <exception cond="(GpsIsLost() @AND (datalink_time @GT 15) @AND nav_block @GT IndexOfBlock('Standby')
                     @AND nav_block @LT IndexOfBlock('landed'))" deroute="Enter_AP_MODE_RC_DIRECT"/>
    <exception cond="((datalink_time @GT 15) @AND nav_block @GT IndexOfBlock('Standby')
                     @AND nav_block @LT IndexOfBlock('landed'))" deroute="Standby"/>
    <exception cond="(delay_test_rc(RadioControlIsLost(),20) @AND nav_block @GT IndexOfBlock('Standby')
                     @AND nav_block @LT IndexOfBlock('descend'))" deroute="land here"/>
  </exceptions>
  <blocks>
    <block name="Enter_AP_MODE_RC_DIRECT">
      <set value="AP_MODE_RC_DIRECT" var="autopilot.mode"/>
      <set value="0" var="force_forward"/>
      <set value="0" var="approach_state"/>
    </block>
    <block name="Wait GPS">
      <set value="0" var="approach_state"/>
      <set value="0" var="force_forward"/>
      <call_once fun="NavKillThrottle()"/>
      <while cond="!GpsFixValid()"/>
    </block>
    <block name="Geo init">
      <set value="0" var="approach_state"/>
      <set value="0" var="force_forward"/>
      <while cond="LessThan(NavBlockTime(), 10)"/>
      <call_once fun="NavSetGroundReferenceHere()"/>
      <!--<call_once fun="NavSetAltitudeReferenceHere()"/>-->
    </block>
    <block name="Holding point">
      <set value="0" var="force_forward"/>
      <set value="0" var="approach_state"/>
      <call_once fun="NavKillThrottle()"/>
      <attitude pitch="0" roll="0" throttle="0" until="FALSE" pre_call="NavKillThrottle()" vmode="throttle"/>
    </block>
    <block name="Start Engine">
      <set value="1" var="approach_state"/>
      <set value="0" var="force_forward"/>
      <call_once fun="NavResurrect()"/>
      <stay climb="-0.5" vmode="climb" wp="TD" until="stage_time @GT 0"/>
    </block>
    <block name="Takeoff" strip_button="Takeoff" strip_icon="takeoff.png">
      <set value="1" var="approach_state"/>
      <set value="0" var="force_forward"/>
      <call_once fun="NavSetWaypointHere(WP_CLIMB)"/>
      <stay wp="CLIMB" until="GetPosHeight() @GT 25.0"/>
      <set value="0" var="approach_state"/>
      <set value="0" var="force_forward"/>
      <go wp="STDBY"/>
      <exception cond="task4" deroute="Aruco_hover"/>
      <deroute block="endurance"/>
    </block>
    <block name="Standby" strip_button="Standby" strip_icon="home.png">
      <set value="0" var="approach_state"/>
      <set value="0" var="force_forward"/>
      <stay wp="STDBY"/>
    </block>
    <block name="Standby_APP">
      <set value="1" var="approach_state"/>
      <set value="0" var="force_forward"/>
      <stay wp="STDBY"/>
    </block>
    <block name="Aruco_hover">
      <set value="0" var="approach_state"/>
      <set value="0" var="force_forward"/>
      <go wp="ARUCO_HOVER_GUESS"/>
      <set value="1" var="approach_state"/>
      <set value="0" var="force_forward"/>
      <exception cond="wp_dist(WaypointX(WP_ARUCO_HOVER),WaypointY(WP_ARUCO_HOVER),WaypointX(WP_ARUCO_HOVER_GUESS),WaypointY(WP_ARUCO_HOVER_GUESS)) @LT 40.0" deroute="ARUCO_flare"/>
      <stay climb="-1.5" vmode="climb" wp="ARUCO_HOVER_GUESS" until="(GetPosHeight() @LT 10.0)"/>
      <deroute block="Standby"/>
    </block>
    <block name="ARUCO_flare">
      <set value="0" var="force_forward"/>
      <set value="1" var="approach_state"/>
      <stay climb="-0.8" vmode="climb" wp="ARUCO_HOVER"/>
      <exception cond="!(GetPosHeight() @GT 1.0)" deroute="ARUCO_flare_low"/>
      <exception cond="agl_dist_valid @AND !(agl_dist_value @GT 0.50)" deroute="ARUCO_flare_low"/>
    </block>
    <block name="ARUCO_flare_low">
      <set value="0" var="force_forward"/>
      <set value="1" var="approach_state"/>
      <exception cond="detect_ground_on_landing()" deroute="landed"/>
      <stay climb="-0.5" vmode="climb" wp="ARUCO_HOVER"/>
    </block>
    <block name="endurance">
      <set value="0" var="force_forward"/>
      <set value="0" var="approach_state"/>
      <set value="25.0" var="nav_max_speed"/>
      <set value="25.0" var="nav_goto_max_speed"/>
      <go wp="p1"/>
      <set value="1" var="force_forward"/>
      <set value="0" var="approach_state"/>
      <for var="i" from="1" to="3">
        <go from="p1" hmode="route" wp="p2"/>
        <go from="p2" hmode="route" wp="p3"/>
        <go from="p3" hmode="route" wp="p4"/>
        <go from="p4" hmode="route" wp="p1"/>
      </for>
      <deroute block="prepare mapping"/>
    </block>
    <block name="prepare mapping">
      <set value="0" var="force_forward"/>
      <set value="0" var="approach_state"/>
      <go wp="LAWN1"/>
    </block>
    <block name="mapping">
      <set value="0" var="force_forward"/>
      <set value="1" var="approach_state"/>
      <set value="8.0" var="nav_max_speed"/>
      <set value="8.0" var="nav_goto_max_speed"/>
        <go from="LAWN1" hmode="route" wp="LAWN2"/>
        <stay wp="LAWN2" until="wp_dist(WaypointX(WP_LAWN2),WaypointY(WP_LAWN2),stateGetPositionEnu_f()->x,stateGetPositionEnu_f()->y) @LT 5.0"/>
        <stay wp="LAWN3" until="wp_dist(WaypointX(WP_LAWN3),WaypointY(WP_LAWN3),stateGetPositionEnu_f()->x,stateGetPositionEnu_f()->y) @LT 5.0"/>
        <go from="LAWN3" hmode="route" wp="LAWN4"/>
        <stay wp="LAWN4" until="wp_dist(WaypointX(WP_LAWN4),WaypointY(WP_LAWN4),stateGetPositionEnu_f()->x,stateGetPositionEnu_f()->y) @LT 5.0"/>
        <stay wp="LAWN5" until="wp_dist(WaypointX(WP_LAWN5),WaypointY(WP_LAWN5),stateGetPositionEnu_f()->x,stateGetPositionEnu_f()->y) @LT 5.0"/>
        <go from="LAWN5" hmode="route" wp="LAWN6"/>
        <stay wp="LAWN6" until="wp_dist(WaypointX(WP_LAWN6),WaypointY(WP_LAWN6),stateGetPositionEnu_f()->x,stateGetPositionEnu_f()->y) @LT 5.0"/>
        <stay wp="LAWN7" until="wp_dist(WaypointX(WP_LAWN7),WaypointY(WP_LAWN7),stateGetPositionEnu_f()->x,stateGetPositionEnu_f()->y) @LT 5.0"/>
        <go from="LAWN7" hmode="route" wp="LAWN8"/>
        <stay wp="LAWN8" until="wp_dist(WaypointX(WP_LAWN8),WaypointY(WP_LAWN8),stateGetPositionEnu_f()->x,stateGetPositionEnu_f()->y) @LT 5.0"/>
        <stay wp="LAWN9" until="wp_dist(WaypointX(WP_LAWN9),WaypointY(WP_LAWN9),stateGetPositionEnu_f()->x,stateGetPositionEnu_f()->y) @LT 5.0"/>
        <go from="LAWN9" hmode="route" wp="LAWN10"/>
        <stay wp="LAWN10" until="wp_dist(WaypointX(WP_LAWN10),WaypointY(WP_LAWN10),stateGetPositionEnu_f()->x,stateGetPositionEnu_f()->y) @LT 5.0"/>
        <stay wp="LAWN11" until="wp_dist(WaypointX(WP_LAWN11),WaypointY(WP_LAWN11),stateGetPositionEnu_f()->x,stateGetPositionEnu_f()->y) @LT 5.0"/>
        <go from="LAWN11" hmode="route" wp="LAWN12"/>
      <deroute block="pictures"/>
    </block>
    <block name="pictures">
      <set value="0" var="force_forward"/>
      <set value="0" var="approach_state"/>
      <set value="5.0" var="nav_max_speed"/>
      <set value="5.0" var="nav_goto_max_speed"/>
      <go wp="D1"/>
      <set value="0" var="force_forward"/>
      <set value="1" var="approach_state"/>
      <stay wp="D1" until="wp_dist(WaypointX(WP_D1),WaypointY(WP_D1),stateGetPositionEnu_f()->x,stateGetPositionEnu_f()->y) @LT 5.0"/>
      <stay wp="D2" until="wp_dist(WaypointX(WP_D2),WaypointY(WP_D2),stateGetPositionEnu_f()->x,stateGetPositionEnu_f()->y) @LT 5.0"/>
      <stay wp="D3" until="wp_dist(WaypointX(WP_D3),WaypointY(WP_D3),stateGetPositionEnu_f()->x,stateGetPositionEnu_f()->y) @LT 5.0"/>
      <stay wp="D4" until="wp_dist(WaypointX(WP_D4),WaypointY(WP_D4),stateGetPositionEnu_f()->x,stateGetPositionEnu_f()->y) @LT 5.0"/>
      <deroute block="land"/>
    </block>
    <block name="land here" strip_button="Land Here" strip_icon="land-right.png">
      <set value="0" var="approach_state"/>
      <set value="0" var="force_forward"/>
      <call_once fun="NavSetWaypointHere(WP_TD)"/>
    </block>
    <block name="land">
      <set value="0" var="force_forward"/>
      <set value="0" var="approach_state"/>
      <go wp="STDBY"/>
      <go wp="TD"/>
    </block>
    <block name="descend">
      <set value="0" var="force_forward"/>
      <set value="1" var="approach_state"/>
      <exception cond="!(GetPosHeight() @GT 12.0)" deroute="flare"/>
      <stay climb="-1.5" vmode="climb" wp="TD"/>
    </block>
    <block name="flare">
      <set value="0" var="force_forward"/>
      <set value="1" var="approach_state"/>
      <stay climb="-0.8" vmode="climb" wp="TD"/>
      <exception cond="!(GetPosHeight() @GT 1.0)" deroute="flare_low"/>
      <exception cond="agl_dist_valid @AND !(agl_dist_value @GT 0.50)" deroute="flare_low"/>
    </block>
    <block name="flare_low">
      <set value="0" var="force_forward"/>
      <set value="1" var="approach_state"/>
      <exception cond="detect_ground_on_landing()" deroute="landed"/>
      <stay climb="-0.5" vmode="climb" wp="TD"/>
    </block>
    <block name="landed">
      <set value="0" var="force_forward"/>
      <set value="1" var="approach_state"/>
      <call_once fun="NavKillThrottle()"/>
      <attitude pitch="0" roll="0" throttle="0" until="FALSE" vmode="throttle"/>
    </block>
  </blocks>
</flight_plan>
