<!DOCTYPE flight_plan SYSTEM "../flight_plan.dtd">

<flight_plan alt="40" ground_alt="0" lat0="52.168595" lon0="4.412444" max_dist_from_home="2000" name="Rotorcraft Basic (Enac)" security_height="2">
  <header>
#include "autopilot.h"
#include "generated/modules.h"
</header>
  <waypoints>
    <!-- <waypoint lat="52.168595" lon="4.412444" name="HOME"/> -->
    <waypoint name="HOME" x="-15.8" y="16.5"/>
    <waypoint name="CLIMB" x="31.6" y="-8.4"/>
    <waypoint lat="52.1685725" lon="4.4132709" name="STDBY"/>
    <!-- <waypoint name="STDBY" x="56.6" y="-1.4"/> -->
    <waypoint lat="52.1687187" lon="4.4139760" name="p1"/>
    <waypoint lat="52.1692320" lon="4.4160862" name="p2"/>
    <waypoint lat="52.1683331" lon="4.4166631" name="p3"/>
    <waypoint lat="52.1679054" lon="4.4144693" name="p4"/>
    <!-- <waypoint name="p1" x="104.5" y="15.8"/>
    <waypoint name="p2" x="247.7" y="75.7"/>
    <waypoint name="p3" x="289.1" y="-23.5"/>
    <waypoint name="p4" x="140.0" y="-74.0"/> -->
    <waypoint lat="52.1691150" lon="4.4161717" name="L1"/>
    <waypoint lat="52.1684721" lon="4.4166178" name="L2"/>
    <waypoint lat="52.1680052" lon="4.4143935" name="L3"/>
    <waypoint lat="52.1686163" lon="4.4140415" name="L4"/>
    <!-- <waypoint alt="30.0" name="L1" x="253.8" y="62.8"/>
    <waypoint alt="15.0" name="L2" x="285.7" y="-8.1"/>
    <waypoint alt="10.0" name="L3" x="134.6" y="-63.0"/>
    <waypoint alt="5.0" name="L4" x="109.2" y="4.5"/> -->
    <waypoint name="TD" x="59.3" y="-33.8"/>
    <waypoint lat="52.169189" lon="4.410820" name="C1"/>
    <waypoint lat="52.168049" lon="4.406923" name="C2"/>
    <waypoint lat="52.166515" lon="4.408235" name="C3"/>
    <waypoint lat="52.163255" lon="4.407668" name="C4"/>
    <waypoint lat="52.161908" lon="4.410082" name="C5"/>
    <waypoint lat="52.162641" lon="4.416992" name="C6"/>
    <waypoint lat="52.164861" lon="4.427268" name="C7"/>
    <waypoint lat="52.170422" lon="4.427511" name="C8"/>
    <waypoint lat="52.172276" lon="4.424011" name="C9"/>
  </waypoints>
  <sectors>
    <sector color="red" name="Geofence">
      <corner name="C1"/>
      <corner name="C2"/>
      <corner name="C3"/>
      <corner name="C4"/>
      <corner name="C5"/>
      <corner name="C6"/>
      <corner name="C7"/>
      <corner name="C8"/>
      <corner name="C9"/>
    </sector>
  </sectors>
  <exceptions>
    <exception cond="Or(!InsideGeofence(GetPosX(), GetPosY()), GetPosAlt() @GT GetAltRef() + 200) @AND !(nav_block == IndexOfBlock('Wait GPS')) @AND !(nav_block == IndexOfBlock('Geo init')) @AND !(nav_block == IndexOfBlock('Holding point'))" deroute="Holding point"/>
    <exception cond="(GpsIsLost())" deroute="Wait GPS"/>
    <exception cond="datalink_time @GT 25 @AND !(nav_block == IndexOfBlock('Wait GPS')) @AND !(nav_block == IndexOfBlock('Geo init')) @AND !(nav_block == IndexOfBlock('Holding point')) @AND !(nav_block == IndexOfBlock('Standby'))" deroute="Standby"/>
  </exceptions>
  <blocks>
    <block name="Wait GPS">
      <call_once fun="NavKillThrottle()"/>
      <while cond="!GpsFixValid()"/>
    </block>
    <block name="Geo init">
      <while cond="LessThan(NavBlockTime(), 1)"/>
      <call_once fun="NavSetGroundReferenceHere()"/>
    </block>
    <block name="Holding point">
      <call_once fun="NavKillThrottle()"/>
      <attitude pitch="0" roll="0" throttle="0" until="FALSE" vmode="throttle"/>
    </block>
    <block name="Automatic Takeoff">
      <call_once fun="NavSetWaypointHere(WP_CLIMB)"/> 
      <call_once fun="NavResurrect()"/>
      <call_once fun="autopilot_set_in_flight(false)"/>
      <call_once fun="take_off_enter()"/>
      <stay climb="nav.climb_vspeed" vmode="climb" wp="CLIMB"/>
      <exception cond="GetPosHeight() @GT 8.0" deroute="Standby"/>
    </block>
    <block name="Standby" strip_button="Standby" strip_icon="home.png">
      <set value="false" var="force_forward"/>
      <stay wp="STDBY"/>
    </block>
    <block name="stay_p1">
      <set value="false" var="force_forward"/>
      <stay wp="p1"/>
    </block>
    <block name="go_p2">
      <set value="false" var="force_forward"/>
      <go wp="p2"/>
      <deroute block="stay_p1"/>
    </block>
    <block name="LowerALT">
      <set value="true" var="force_forward"/>
      <go wp="L1"/>
      <go wp="L2"/>
      <go wp="L3"/>
      <go wp="L4"/>
      <deroute block="land"/>
    </block>
    <block name="route">
      <set value="true" var="force_forward"/>
      <while cond="true">
        <go from="p1" hmode="route" wp="p2"/>
        <go from="p2" hmode="route" wp="p3"/>
        <go from="p3" hmode="route" wp="p4"/>
        <go from="p4" hmode="route" wp="p1"/>
      </while>
      <deroute block="stay_p1"/>
    </block>
    <block name="land here" strip_button="Land Here" strip_icon="land-right.png">
      <call_once fun="NavSetWaypointHere(WP_TD)"/>
    </block>
    <block name="land">
      <set value="false" var="force_forward"/>
      <go vmode="alt" wp="TD"/>
    </block>
    <block name="flare">
      <exception cond="LessThan(agl_dist_value_filtered, 0.2) @AND agl_dist_valid" deroute="pivot_land"/>
      <stay climb="nav.descend_vspeed" vmode="climb" wp="TD"/>
    </block>
    <block name="pivot_land">
      <exception cond="LessThan(eulers_zxy.theta, RadOfDeg(-85.0)) || eulers_zxy.theta @GT RadOfDeg(85.0)" deroute="landed"/>
      <set value="3" var="takeoff_stage"/>
      <call_once fun="take_off_enter()"/>
      <stay alt="0.0" wp="TD"/>
    </block>
    <block name="landed">
      <call_once fun="NavKillThrottle()"/>
      <attitude pitch="0" roll="0" throttle="0" until="FALSE" vmode="throttle"/>
    </block>
  </blocks>
</flight_plan>
