<!DOCTYPE flight_plan SYSTEM "../flight_plan.dtd">

<flight_plan alt="100" ground_alt="0" lat0="52.16810052554008" lon0="4.412674313128298" max_dist_from_home="1500" name="Basic" security_height="50">
  <header>
#include "subsystems/datalink/datalink.h"
</header>
  <waypoints>
    <waypoint name="HOME" x="0" y="0"/>
    <!--waypoint name="CenterPoint" x="49.5" y="-100.1"/-->
    <waypoint name="1" x="10.1" y="189.9"/>
    <waypoint name="2" x="132.3" y="139.1"/>
    <waypoint name="MOB" x="137.0" y="-11.6"/>
    <waypoint name="S1" x="-119.2" y="69.6"/>
    <waypoint name="S2" x="274.4" y="209.5"/>
    <waypoint alt="215.0" name="AF" x="177.4" y="45.1"/>
    <waypoint alt="185.0" name="TD" x="28.8" y="57.0"/>
    <waypoint name="_BASELEG" x="168.8" y="-13.8"/>
    <waypoint name="CLIMB" x="50" y="-50"/>
    <waypoint name="CenterPoint" lat="52.16882159944184" lon="4.417506194127447"/>
    <waypoint name="ROUTE_00" lat="52.167153758107176" lon="4.414723323126365" height="100"/>
    <waypoint name="ROUTE_01" lat="52.16911055333959" lon="4.419393630221458" height="100"/>
    <waypoint name="ROUTE_02" lat="52.16945359831984" lon="4.419035257415475" height="100"/>
    <waypoint name="ROUTE_03" lat="52.16751919853292" lon="4.4143615152236295" height="100"/>
    <waypoint name="ROUTE_04" lat="52.167195593543795" lon="4.414679378434059" height="100"/>
    <waypoint name="ROUTE_05" lat="52.169146961998564" lon="4.419353555210329" height="100"/>
    <waypoint name="ROUTE_06" lat="52.16965642732997" lon="4.418822141269236" height="100"/>
    <waypoint name="ROUTE_07" lat="52.16774437234143" lon="4.4141184706811805" height="100"/>
    <waypoint name="ROUTE_08" lat="52.16736799513812" lon="4.4144940898599785" height="100"/>
    <waypoint name="ROUTE_09" lat="52.1692547796185" lon="4.419170430853248" height="100"/>
    <waypoint name="ROUTE_10" lat="52.16958686197147" lon="4.4188328807239285" height="100"/>
    <waypoint name="ROUTE_11" lat="52.167697643158306" lon="4.4141097892316985" height="100"/>
    <waypoint name="ROUTE_12" lat="52.167032279368215" lon="4.4136332835923175" height="100"/>
    <waypoint name="ROUTE_13" lat="52.167886624910906" lon="4.4128670258116305" height="100"/>
    <waypoint name="FENCE_00" lat="52.169851532935944" lon="4.41615338461242"/>
    <waypoint name="FENCE_01" lat="52.172800906396056" lon="4.422615437701677"/>
    <waypoint name="FENCE_02" lat="52.17326555208937" lon="4.42404701483153"/>
    <waypoint name="FENCE_03" lat="52.17098546333649" lon="4.426170882602671"/>
    <waypoint name="FENCE_04" lat="52.16849635026803" lon="4.420310014187492"/>
    <waypoint name="FENCE_05" lat="52.16576040601871" lon="4.413352136503864"/>
    <waypoint name="FENCE_06" lat="52.16792663605859" lon="4.410998171658509"/>
    <waypoint name="_SW_00" lat="52.16927397628467" lon="4.415536705562699"/>
    <waypoint name="_SW_01" lat="52.16938912140934" lon="4.415826199268378"/>
    <waypoint name="_SW_02" lat="52.16901718482455" lon="4.416201044907153"/>
    <waypoint name="_SW_03" lat="52.168903760082316" lon="4.4159274586688095"/>
  </waypoints>
  <sectors>
    <sector color="yellow" name="GeoFence" type="dynamic">
      <corner name="FENCE_00"/>
      <corner name="FENCE_01"/>
      <corner name="FENCE_02"/>
      <corner name="FENCE_03"/>
      <corner name="FENCE_04"/>
      <corner name="FENCE_05"/>
      <corner name="FENCE_06"/>
    </sector>
    <sector color="red" name="stieltjesweg">
      <corner name="_SW_00"/>
      <corner name="_SW_01"/>
      <corner name="_SW_02"/>
      <corner name="_SW_03"/>
    </sector>
  </sectors>
  <exceptions>
    <!-- Datalink timeout -->
    <!--exception cond="(datalink_time > 22 &&
      !(nav_block == IndexOfBlock('Wait GPS')) && !(nav_block == IndexOfBlock('Geo init')) && !(nav_block == IndexOfBlock('Holding point')) && !(nav_block == IndexOfBlock('ReturnCenterPointNoThrottle'))" deroute="ReturnCenterPointNoThrottle"/-->

    <!-- RC loss -->
    <exception cond="((radio_control.status == RC_REALLY_LOST) &&
      !(IndexOfBlock('Takeoff') > nav_block) &&
      !(nav_block == IndexOfBlock('ReturnCenterPointNoThrottle')))"
      deroute="ReturnCenterPointNoThrottle"
    />

    <!-- Check inside Flight Area, then goto CenterPoint -->
    <exception cond="(GetPosAlt() > GetAltRef() + 150) &&
      !(IndexOfBlock('Takeoff') > nav_block) &&
      !(nav_block == IndexOfBlock('ReturnCenterPointNoThrottle'))"
      deroute="ReturnCenterPointNoThrottle"
    />
    <!--exception cond="!InsideGeoFence(GetPosX(), GetPosY())"
      deroute="ReturnCenterPointNoThrottle"
    /-->
  </exceptions>
  <blocks>
    <block name="Wait GPS">
      <set value="1" var="autopilot.kill_throttle"/>
      <while cond="!GpsFixValid()"/>
    </block>
    <block name="Geo init">
      <while cond="LessThan(NavBlockTime(), 10)"/>
      <call_once fun="nav_reset_alt()"/>
    </block>
    <block name="Holding point">
      <!--set var="nav_mode" value="NAV_MODE_ROLL"/-->
      <set value="1" var="autopilot.kill_throttle"/>
      <attitude roll="0" throttle="0" vmode="throttle"/>
    </block>
    <block key="t" name="Takeoff" strip_button="Takeoff (wp CLIMB)" strip_icon="takeoff.png" group="home">
      <exception cond="GetPosAlt() > GetAltRef()+25" deroute="disco_wind_from_west_wide_taxitrack"/>
      <set value="0" var="autopilot.kill_throttle"/>
      <set value="0" var="autopilot.flight_time"/>
      <go from="HOME" throttle="1.0" vmode="throttle" wp="CLIMB" pitch="25"/>
    </block>
    <block name="disco_wind_from_east_wide_taxitrack">
      <path wpts="ROUTE_00, ROUTE_01, ROUTE_02, ROUTE_03, ROUTE_04, ROUTE_05, ROUTE_06, ROUTE_07, ROUTE_08, ROUTE_09, ROUTE_10, ROUTE_11, ROUTE_12, ROUTE_13"/>
    </block>
    <block key="Ctrl+a" name="Standby" strip_button="Standby" strip_icon="home.png" group="home">
      <set value="0" var="autopilot.kill_throttle"/>
      <circle radius="nav_radius" wp="CenterPoint"/>
    </block>
    <block key="F8" name="Figure 8 around wp 1" strip_button="Figure 8 (wp 1-2)" strip_icon="eight.png" group="base_pattern">
      <eight center="1" radius="nav_radius" turn_around="2"/>
    </block>
    <block name="Oval 1-2" strip_button="Oval (wp 1-2)" strip_icon="oval.png" group="base_pattern">
      <oval p1="1" p2="2" radius="nav_radius"/>
    </block>
    <block name="MOB" strip_button="Circle around here" strip_icon="mob.png" group="base_pattern">
      <call_once fun="NavSetWaypointHere(WP_MOB)"/>
      <set value="DEFAULT_CIRCLE_RADIUS" var="nav_radius"/>
      <circle radius="nav_radius" wp="MOB"/>
    </block>
    <block name="Survey S1-S2" strip_button="Survey (wp S1-S2)" strip_icon="survey.png" group="extra_pattern">
      <survey_rectangle grid="150" wp1="S1" wp2="S2"/>
    </block>
    <block name="Path 1,2,S1,S2,CenterPoint" strip_button="Path (1,2,S1,S2,CenterPoint)" strip_icon="path.png" group="extra_pattern">
      <path wpts="1,2 S1"/>
      <path wpts="S1, S2 CenterPoint" approaching_time="1" pitch="auto" throttle="0.4"/>
      <deroute block="Standby"/>
    </block>
    <block name="Land Right AF-TD" strip_button="Land right (wp AF-TD)" strip_icon="land-right.png" group="land">
      <set value="DEFAULT_CIRCLE_RADIUS" var="nav_radius"/>
      <deroute block="land"/>
    </block>
    <block name="Land Left AF-TD" strip_button="Land left (wp AF-TD)" strip_icon="land-left.png" group="land">
      <set value="-DEFAULT_CIRCLE_RADIUS" var="nav_radius"/>
      <deroute block="land"/>
    </block>
    <block name="land">
      <call_once fun="nav_compute_baseleg(WP_AF, WP_TD, WP__BASELEG, nav_radius)"/>
      <circle radius="nav_radius" until="NavCircleCount() > 0.5" wp="_BASELEG"/>
      <circle radius="nav_radius" until="And(NavQdrCloseTo(DegOfRad(baseleg_out_qdr)-(nav_radius/fabs(nav_radius))*10), 10 > fabs(GetPosAlt() - WaypointAlt(WP__BASELEG)))" wp="_BASELEG"/>
    </block>
    <block name="final">
      <exception cond="GetAltRef() + 10 > GetPosAlt()" deroute="flare"/>
      <go from="AF" hmode="route" vmode="glide" wp="TD"/>
    </block>
    <block name="flare">
      <go approaching_time="0" from="AF" hmode="route" throttle="0.0" vmode="throttle" wp="TD"/>
      <attitude roll="0.0" throttle="0.0" until="FALSE" vmode="throttle"/>
    </block>
    <block name="ReturnCenterPointNoThrottle">
      <exception cond="And(!(radio_control.status == RC_REALLY_LOST), And(InsideGeoFence(GetPosX(), GetPosY()), And(MoreThan(GetPosAlt(), GetAltRef() + 20), LessThan(GetPosAlt(), GetAltRef() + 80))))" deroute="Standby"/>
      <set value="1" var="autopilot.kill_throttle"/>
      <circle radius="nav_radius" wp="CenterPoint" vmode="throttle" throttle="0.0"/>
    </block>
  </blocks>
</flight_plan>
